City_ID,City,Lat,Lng,Max Temp,Humidity,Cloudiness,Wind Speed,Country,Date
0,necochea,-38.5473,-58.7368,283.54,92,8,3.5,AR,1734417476
1,guane,22.2025,-84.0875,294.65,93,2,2.04,CU,1734417477
2,port-aux-francais,-49.35,70.2167,278.87,80,13,15.4,TF,1734417480
3,bredasdorp,-34.5322,20.0403,292.08,52,87,4.43,ZA,1734417481
4,olonkinbyen,70.9221,-8.7187,270.53,62,84,4.44,SJ,1734417482
5,edinburgh of the seven seas,-37.0676,-12.3116,289.19,91,100,8.95,SH,1734417483
6,thompson,55.7435,-97.8558,256.24,85,100,2.06,CA,1734417484
7,magadan,59.5667,150.8,259.62,73,100,5.06,RU,1734417486
8,labrador city,52.9463,-66.9114,268.1,82,100,7.6,CA,1734417487
9,vila velha,-20.3297,-40.2925,296.45,93,75,5.66,BR,1734417488
10,inhambane,-23.865,35.3833,303.14,79,75,2.57,MZ,1734417489
11,zaozersk,69.4005,32.4476,257.22,91,100,1.68,RU,1734417492
12,louth,53.3666,-0.0044,278.95,93,99,6.17,GB,1734417493
13,saint-pierre,-21.3393,55.4781,301.97,54,0,3.6,RE,1734417494
14,atafu village,-8.5421,-172.5159,301.03,76,61,6.01,TK,1734417496
15,blackmans bay,-43.0167,147.3167,291.22,59,10,1.79,AU,1734417499
16,mandiana,10.6333,-8.6833,291.12,21,18,2.32,GN,1734417501
17,kodiak,57.79,-152.4072,277.88,93,100,14.4,US,1734417384
18,chapaev,50.2,51.1667,272.9,96,100,10.61,KZ,1734417503
19,marsh harbour,26.5412,-77.0636,297.74,81,0,10.17,BS,1734417504
20,papatowai,-46.5619,169.4708,285.83,67,90,5.82,NZ,1734417506
21,nar'yan-mar,67.6713,53.087,247.05,96,73,1.95,RU,1734417508
22,hamilton,39.1834,-84.5333,279.32,82,40,5.66,US,1734417509
23,waitangi,-43.9535,-176.5597,286.38,90,100,1.34,NZ,1734417510
24,hede,33.7681,120.2517,283.62,29,0,3.61,CN,1734417511
25,ushuaia,-54.8,-68.3,286.96,58,0,3.6,AR,1734417512
26,stanley,54.868,-1.6985,280.65,86,20,3.09,GB,1734417514
27,carnarvon,-24.8667,113.6333,303.51,52,0,8.79,AU,1734417515
28,bethel,41.3712,-73.414,281.79,90,100,4.12,US,1734417516
29,puerto natales,-51.7236,-72.4875,282.56,95,100,1.82,CL,1734417517
30,grytviken,-54.2811,-36.5092,273.65,90,85,7.36,GS,1734417518
31,yellowknife,62.456,-114.3525,246.44,76,20,5.14,CA,1734417519
32,la passe,45.5549,-0.8967,279.03,77,100,3.62,FR,1734417521
33,ancud,-41.8697,-73.8203,284.55,96,23,1.46,CL,1734417522
34,itoman,26.1247,127.6694,293.16,56,20,4.63,JP,1734417523
35,hotan,37.0997,79.9269,270.75,49,16,4.53,CN,1734417524
36,dimona,31.0667,35.0333,285.22,68,0,0.86,IL,1734417525
37,whitehorse,60.7161,-135.0538,257.58,88,75,2.57,CA,1734417527
38,hawaiian paradise park,19.5933,-154.9731,294.75,99,100,2.06,US,1734417528
39,puno,-15.8333,-70.0333,279.09,79,98,2.49,PE,1734417529
40,villa gesell,-37.2639,-56.973,287.74,87,0,2.37,AR,1734417530
41,acajutla,13.5928,-89.8275,296.93,64,0,2.74,SV,1734417531
42,zouerate,22.7187,-12.4521,288.99,24,16,8.06,MR,1734417533
43,flying fish cove,-10.4217,105.6791,302.97,74,40,4.12,CX,1734417534
44,arkhangel'sk,64.5401,40.5433,249.21,77,0,3.0,RU,1734417535
45,kavaratti,10.5669,72.642,299.94,68,100,2.22,IN,1734417536
46,rizhao,35.4275,119.4553,279.94,31,83,4.63,CN,1734417537
47,bentota,6.4254,79.9948,301.65,76,100,5.77,LK,1734417538
48,balqash,46.8481,74.995,258.48,85,71,8.0,KZ,1734417540
49,puerto ayora,-0.7393,-90.3518,295.7,83,54,2.4,EC,1734417542
50,altai,46.3722,96.2583,261.8,63,100,0.92,MN,1734417543
51,talnakh,69.4865,88.3972,253.7,93,100,6.36,RU,1734417545
52,swakopmund,-22.6833,14.5333,288.14,83,0,2.24,NA,1734417546
53,bengkulu,-3.8004,102.2655,302.61,68,100,4.84,ID,1734417547
54,chonchi,-42.6128,-73.8092,284.33,99,42,1.18,CL,1734417549
55,tharangambadi,11.0319,79.8528,299.65,74,100,7.43,IN,1734417550
56,alotau,-10.3069,150.4462,300.25,90,100,1.44,PG,1734417551
57,badger,64.8,-147.5333,254.08,71,40,0.0,US,1734417552
58,wuwei,37.9281,102.6414,271.67,45,11,2.71,CN,1734417553
59,port mathurin,-19.6833,63.4167,298.39,67,77,8.39,MU,1734417555
60,qaqortoq,60.7167,-46.0333,264.34,75,100,3.55,GL,1734417556
61,ola,59.5833,151.2833,259.65,73,100,5.57,RU,1734417557
62,iskateley,67.6803,53.1512,246.99,96,78,1.98,RU,1734417558
63,the pas,53.8251,-101.2541,260.16,78,100,7.2,CA,1734417559
64,adamstown,-25.066,-130.1015,295.13,66,13,6.75,PN,1734417560
65,albany,42.6001,-73.9662,278.66,95,100,1.79,US,1734417562
66,san patricio,28.017,-97.5169,294.12,70,100,2.77,US,1734417563
67,saipan,15.1355,145.701,301.29,86,40,6.17,MP,1734417564
68,lebu,-37.6167,-73.65,286.53,86,76,4.08,CL,1734417565
69,isafjordur,66.0755,-23.124,269.1,84,100,3.68,IS,1734417566
70,iqaluit,63.7506,-68.5145,260.0,72,75,1.03,CA,1734417568
71,saint-philippe,-21.3585,55.7679,299.65,69,24,5.74,RE,1734417569
72,dalandzadgad,43.5708,104.425,269.51,30,0,0.86,MN,1734417570
73,nushki,29.5542,66.0215,280.97,25,0,2.59,PK,1734417571
74,akureyri,65.6835,-18.0878,269.11,80,75,2.57,IS,1734417574
75,puerto leguizamo,-0.1934,-74.7819,295.84,99,100,0.68,CO,1734417575
76,namdrik,5.5994,168.1028,301.4,80,63,7.16,MH,1734417576
77,invercargill,-46.4,168.35,293.72,55,100,3.13,NZ,1734417578
78,tiksi,71.6872,128.8694,248.56,97,5,3.21,RU,1734417580
79,kapuskasing,49.4169,-82.4331,275.15,100,100,4.12,CA,1734417581
80,conception bay south,47.4999,-52.9981,273.46,83,0,4.59,CA,1734417582
81,swift current,50.2834,-107.8014,259.6,85,100,1.03,CA,1734417583
82,punta arenas,-53.15,-70.9167,284.88,71,0,3.6,CL,1734417584
83,danielskuil,-28.1887,23.5395,298.33,15,0,1.07,ZA,1734417585
84,georgetown,5.4112,100.3354,304.11,52,20,4.63,MY,1734417587
85,rongelap,11.1635,166.8941,300.71,86,99,11.18,MH,1734417588
86,nema,57.5067,50.5011,268.36,93,100,5.18,RU,1734417589
87,kapa'a,22.0752,-159.319,293.97,92,20,2.06,US,1734417590
88,vila franca do campo,37.7167,-25.4333,290.38,99,71,5.46,PT,1734417591
89,belel,7.05,14.4333,292.21,22,100,1.96,CM,1734417593
90,viveiro,43.6623,-7.5934,287.64,50,100,3.67,ES,1734417594
91,longyearbyen,78.2186,15.6401,266.06,63,75,4.12,SJ,1734417595
92,port lincoln,-34.7333,135.8667,292.1,57,0,8.06,AU,1734417597
93,alice springs,-23.7,133.8833,308.9,23,100,7.72,AU,1734417600
94,utrik,11.2278,169.8474,300.46,83,100,11.62,MH,1734417601
95,coquimbo,-29.9533,-71.3436,287.0,94,0,1.54,CL,1734417602
96,fukumitsu,36.55,136.8667,277.47,91,100,0.45,JP,1734417603
97,chibougamau,49.9168,-74.3659,271.94,100,100,5.14,CA,1734417604
98,san gabriel,34.0961,-118.1058,284.75,43,100,0.4,US,1734417606
99,dudinka,69.4058,86.1778,251.69,93,100,9.85,RU,1734417607
100,kone,-21.0595,164.8658,301.97,66,78,2.74,NC,1734417608
101,polyarnyy,69.1989,33.4478,258.16,91,100,3.48,RU,1734417609
102,crane,31.3974,-102.3501,282.67,47,0,4.26,US,1734417610
103,kathu,7.9178,98.3332,304.05,68,16,4.21,TH,1734417613
104,simenqian,27.4872,110.8861,286.93,45,53,2.05,CN,1734417614
105,bilibino,68.0546,166.4372,252.66,98,100,0.4,RU,1734417615
106,noumea,-22.2763,166.4572,299.46,81,50,5.97,NC,1734417616
107,selfoss,63.9331,-20.9971,272.78,87,100,1.35,IS,1734417620
108,petropavlovsk-kamchatsky,53.0452,158.6483,271.48,43,75,6.0,RU,1734417623
109,wailua homesteads,22.0669,-159.378,293.22,92,20,2.06,US,1734417624
110,talara,-4.5772,-81.2719,292.86,83,66,5.16,PE,1734417625
111,tralee,52.2704,-9.7026,283.53,92,100,4.47,IE,1734417628
112,tazovsky,67.4667,78.7,252.51,94,100,6.03,RU,1734417629
113,margate,51.3813,1.3862,279.65,94,97,4.63,GB,1734417630
114,fomboni,-12.28,43.7425,300.84,74,12,3.82,KM,1734417631
115,el calafate,-50.3408,-72.2768,286.95,54,100,2.83,AR,1734417632
116,kunduz,36.75,68.75,277.77,57,0,1.51,AF,1734417633
117,kalmunai,7.4167,81.8167,301.62,78,58,4.3,LK,1734417635
118,new norfolk,-42.7826,147.0587,291.99,59,6,4.99,AU,1734417636
119,priladozhskiy,59.85,31.4833,265.56,89,100,3.94,RU,1734417637
120,mount gambier,-37.8333,140.7667,291.05,53,1,6.05,AU,1734417638
121,el granada,37.5027,-122.4694,282.33,95,100,2.06,US,1734417639
122,margaret river,-33.95,115.0667,295.74,53,0,4.62,AU,1734417641
123,carutapera,-1.195,-46.02,299.17,84,100,3.71,BR,1734417642
124,yelizovo,53.1873,158.3805,272.23,43,75,6.0,RU,1734417592
125,san ignacio de velasco,-16.3667,-60.95,294.56,93,20,1.01,BO,1734417644
126,keflavik,64.0049,-22.5624,272.39,100,20,4.63,IS,1734417645
127,avarua,-21.2078,-159.775,298.18,94,40,4.63,CK,1734417648
128,luderitz,-26.6481,15.1594,292.41,47,3,8.86,NA,1734417649
129,guerrero negro,27.9769,-114.0611,287.98,87,100,3.12,MX,1734417652
130,kudahuvadhoo,2.6708,72.8944,300.85,81,93,5.93,MV,1734417653
131,colonia,50.9333,6.95,280.4,90,100,2.06,DE,1734417654
132,touros,-5.1989,-35.4608,299.04,81,93,5.39,BR,1734417655
133,nyzhni sirohozy,46.8484,34.3804,279.6,86,100,7.36,UA,1734417656
134,cassia,-20.5831,-46.9219,291.62,96,100,0.96,BR,1734417658
135,abalak,58.1286,68.5944,267.34,85,100,7.5,RU,1734417659
136,st. john's,47.5649,-52.7093,273.79,78,0,4.63,CA,1734417551
137,tura,25.5198,90.2201,298.47,28,31,1.81,IN,1734417661
138,ballina,-28.8667,153.5667,299.12,83,26,4.33,AU,1734417662
139,tahe,52.3333,124.7333,260.53,76,1,3.33,CN,1734417663
140,weno,7.4515,151.8468,303.12,74,40,3.6,FM,1734417665
141,gadzhiyevo,69.2551,33.3362,257.5,95,100,3.43,RU,1734417666
142,heroica caborca,30.7167,-112.15,285.99,28,2,0.7,MX,1734417667
143,mar del plata,-38.0023,-57.5575,287.33,83,100,2.06,AR,1734417668
144,mejit,10.2753,170.8646,300.61,86,100,11.13,MH,1734417669
145,olyokminsk,60.3736,120.4264,255.23,93,100,2.78,RU,1734417671
146,cadale,2.7603,46.3222,301.9,56,6,9.27,SO,1734417672
147,sakaiminato,35.55,133.2333,282.14,57,75,8.75,JP,1734417673
148,namibe,-15.1961,12.1522,295.27,78,100,2.74,AO,1734417674
149,usinsk,65.9939,57.5281,252.98,86,98,3.74,RU,1734417676
150,yuzhno-kurilsk,44.0306,145.8556,269.29,55,14,3.2,RU,1734417677
151,ressano garcia,-25.442,31.9913,305.36,47,49,2.44,MZ,1734417678
152,geraldton,-28.7667,114.6,308.38,24,0,7.72,AU,1734417679
153,hithadhoo,-0.6,73.0833,301.08,77,48,7.76,MV,1734417680
154,eastham,41.8301,-69.9739,281.47,94,100,4.63,US,1734417682
155,minab,27.1467,57.0801,291.4,14,5,3.53,IR,1734417683
156,college,64.8569,-147.8028,254.12,71,40,0.0,US,1734417684
157,emerald,-23.5333,148.1667,304.54,49,100,7.59,AU,1734417685
158,kasongo-lunda,-6.4667,16.8167,295.6,96,100,0.46,CD,1734417686
159,east london,-33.0153,27.9116,291.67,82,100,5.14,ZA,1734417687
160,escanaba,45.7453,-87.0646,274.81,87,100,4.63,US,1734417689
161,merizo village,13.2658,144.6691,301.69,85,15,8.43,GU,1734417690
162,west island,-12.1568,96.8225,302.14,79,100,1.54,CC,1734417691
163,vorgashor,67.5833,63.95,251.86,89,100,1.91,RU,1734417692
164,port elizabeth,-33.918,25.5701,293.31,71,0,6.17,ZA,1734417693
165,fort mcmurray,56.7268,-111.381,249.88,70,100,4.63,CA,1734417695
166,puerto baquerizo moreno,-0.9,-89.6,295.65,84,63,3.38,EC,1734417696
167,cidreira,-30.1811,-50.2056,290.65,94,17,3.41,BR,1734417697
168,ribeira grande,38.5167,-28.7,291.91,81,100,10.28,PT,1734417698
169,puerto aysen,-45.4,-72.7,285.46,96,73,1.85,CL,1734417699
170,mersa matruh,31.3525,27.2453,290.26,63,40,5.14,EG,1734417700
171,camapua,-19.5314,-54.0439,294.64,69,10,1.9,BR,1734417702
172,happy valley-goose bay,53.3168,-60.3315,272.32,47,100,1.54,CA,1734417703
173,queenstown,-31.8976,26.8753,293.63,57,49,2.53,ZA,1734417704
174,nova vicosa,-17.8919,-39.3719,297.35,90,100,3.27,BR,1734417705
175,la'ie,21.6477,-157.9253,294.32,85,7,1.14,US,1734417706
176,prince rupert,54.3161,-130.3201,275.98,48,9,4.12,CA,1734417707
177,ponta delgada,37.7333,-25.6667,290.55,77,75,8.75,PT,1734417710
178,prado,-17.3411,-39.2208,297.24,90,100,2.51,BR,1734417711
179,alofi,-19.0595,-169.9187,299.09,73,20,1.54,NU,1734417712
180,vernon,50.2581,-119.2691,272.84,91,99,2.57,CA,1734417708
181,muhos,64.808,25.9931,258.87,96,16,1.7,FI,1734417714
182,nyurba,63.2842,118.3319,264.76,93,100,4.77,RU,1734417715
183,mahanoro,-19.9,48.8,302.15,59,29,2.89,MG,1734417717
184,nova sintra,14.8667,-24.7167,298.67,75,100,5.13,CV,1734417718
185,vilyuchinsk,52.9306,158.4028,272.3,81,81,5.02,RU,1734417719
186,aleksandrov gay,50.147,48.5704,273.97,97,100,8.78,RU,1734417720
187,changsha,28.2,112.9667,288.24,29,73,2.73,CN,1734417721
188,honefoss,60.168,10.2565,268.18,90,10,0.68,NO,1734417723
189,tanjung pandan,-2.75,107.65,302.39,70,99,4.6,ID,1734417724
190,chegdomyn,51.1167,133.0167,246.65,94,64,0.51,RU,1734417725
191,hami,42.8,93.45,268.04,43,100,1.47,CN,1734417726
192,belo sur tsiribihina,-19.7,44.55,306.92,53,35,1.27,MG,1734417727
193,soe,-9.8607,124.284,299.1,72,100,2.75,ID,1734417729
194,gelemso,8.8167,40.5167,290.82,53,50,4.0,ET,1734417730
195,taishan,22.2514,112.7799,295.42,25,0,3.47,CN,1734417731
196,fortuna,40.5982,-124.1573,282.66,95,75,3.6,US,1734417733
197,fort myers shores,26.7092,-81.7459,293.74,97,0,3.09,US,1734417734
198,calvinia,-31.4707,19.776,285.05,62,0,0.0,ZA,1734417737
199,madison,34.7334,-86.5667,287.68,98,100,0.89,US,1734417738
200,san felipe,10.3399,-68.7425,294.18,100,91,1.12,VE,1734417739
201,kerikeri,-35.2268,173.9474,293.66,78,100,1.79,NZ,1734417740
202,mosjoen,65.836,13.1908,273.44,86,20,1.03,NO,1734417741
203,aromashevo,56.8602,68.6375,266.82,79,100,9.68,RU,1734417742
204,faya-largeau,17.9257,19.1043,290.09,23,0,3.09,TD,1734417745
205,nuuk,64.1835,-51.7216,266.97,79,100,7.2,GL,1734417746
206,ilulissat,69.2167,-51.1,264.16,57,40,11.32,GL,1734417747
207,garoowe,8.4054,48.4845,299.32,29,6,8.69,SO,1734417748
208,klyuchi,52.2667,79.1667,261.37,80,7,4.42,RU,1734417750
209,shimoda,34.6667,138.95,284.26,58,2,10.77,JP,1734417751
210,lorengau,-2.0226,147.2712,300.82,82,100,4.51,PG,1734417752
211,newman,37.3138,-121.0208,280.95,94,100,2.37,US,1734417753
212,veraval,20.9,70.3667,300.02,27,40,2.74,IN,1734417754
213,apostolove,47.66,33.7137,277.84,90,100,5.92,UA,1734417755
214,maragogi,-9.0122,-35.2225,297.96,86,37,2.93,BR,1734417757
215,kampene,-3.6,26.6667,296.56,92,100,1.11,CD,1734417758
216,mahalapye,-23.1041,26.8142,305.07,30,3,4.57,BW,1734417759
217,kingston,17.997,-76.7936,297.13,78,40,3.09,JM,1734417760
218,hastings,50.8552,0.5729,281.43,54,100,6.83,GB,1734417761
219,zaragoza,41.6561,-0.8773,273.4,93,0,2.06,ES,1734417762
220,lagawe,16.8,121.1192,294.5,94,100,1.14,PH,1734417764
221,zabol,32.25,67.25,276.62,38,0,1.75,AF,1734417765
222,mesquite,32.7668,-96.5992,285.58,82,75,2.57,US,1734417766
223,hermanus,-34.4187,19.2345,291.93,62,100,3.71,ZA,1734417767
224,hobyo,5.3505,48.5268,301.03,61,7,10.79,SO,1734417770
225,kailua-kona,19.6406,-155.9956,294.97,73,0,4.12,US,1734417772
226,guigue,10.0853,-67.7792,298.05,73,97,1.54,VE,1734417773
227,freeport,40.6576,-73.5832,283.13,96,100,7.2,US,1734417774
228,holualoa,19.6228,-155.9522,292.9,79,0,4.12,US,1734417777
229,tamanrasset,22.785,5.5228,279.1,33,0,1.54,DZ,1734417778
230,la sarre,48.8002,-79.1996,274.38,100,100,3.65,CA,1734417779
231,enewetak,11.3474,162.3373,301.1,85,95,10.18,MH,1734417780
232,fredonia,42.4401,-79.3317,281.81,90,40,10.8,US,1734417781
233,leticia,-4.2153,-69.9406,298.16,100,40,1.54,CO,1734417783
234,medjez el bab,36.6496,9.6123,281.82,85,0,2.03,TN,1734417784
235,fale old settlement,-9.3852,-171.2468,301.16,76,100,5.9,TK,1734417785
236,mumbwa,-14.9783,27.0619,301.12,45,37,3.09,ZM,1734417786
237,praia,14.9215,-23.5087,297.45,83,0,4.63,CV,1734417787
238,bovalino,38.149,16.174,283.32,70,0,2.97,IT,1734417788
239,al hawatah,13.4167,34.6333,302.49,31,94,5.3,SD,1734417790
240,ambon,-3.6954,128.1814,300.31,100,40,5.14,ID,1734417791
241,jining,35.405,116.5814,281.84,23,0,3.26,CN,1734417793
242,minas de marcona,-15.2119,-75.1103,288.38,88,100,4.03,PE,1734417794
243,anadyr,64.75,177.4833,265.43,67,75,5.0,RU,1734417743
244,nanao,37.05,136.9667,279.54,81,94,2.09,JP,1734417797
245,vail,32.0479,-110.712,280.88,28,0,1.34,US,1734417798
246,carterton,51.759,-1.5944,279.65,95,100,3.09,GB,1734417799
247,leava,-14.3,-178.1667,300.85,76,51,2.38,WF,1734417801
248,gouyave,12.1646,-61.7296,298.58,94,75,0.0,GD,1734417802
249,aboso,5.3617,-1.9473,297.53,92,21,0.93,GH,1734417803
250,katsuura,35.1333,140.3,284.72,60,15,2.62,JP,1734417804
251,san antonio de pale,-1.4014,5.6325,299.68,80,100,1.83,GQ,1734417805
252,lauro de freitas,-12.8944,-38.3272,299.16,83,20,2.57,BR,1734417806
253,ain defla,36.2641,1.9679,279.81,74,0,1.73,DZ,1734417808
254,"laikit, laikit ii (dimembe)",1.4792,124.9735,302.62,70,20,1.54,ID,1734417809
255,kirovsk,48.6375,38.6428,274.6,87,100,9.37,UA,1734417810
256,viedma,-40.8135,-62.9967,291.09,63,53,6.74,AR,1734417811
257,saint-joseph,-21.3667,55.6167,302.36,68,24,4.74,RE,1734417813
258,remire-montjoly,4.9167,-52.2667,298.17,94,75,0.51,GF,1734417815
259,lihue,21.9789,-159.3672,293.0,94,20,2.06,US,1734417816
260,naze,28.3667,129.4833,290.66,49,65,2.51,JP,1734417817
261,ha'il,27.5219,41.6907,282.16,25,0,2.06,SA,1734417818
262,maceio,-9.6658,-35.7353,297.84,100,40,1.03,BR,1734417820
263,muli,2.9167,73.5667,301.25,78,80,6.08,MV,1734417821
264,mariental,-24.6333,17.9667,298.16,20,1,5.46,NA,1734417822
265,saldanha,-33.0117,17.9442,291.18,63,100,1.63,ZA,1734417823
266,malango,-2.9627,119.9001,297.86,82,100,1.31,ID,1734417824
267,praia da vitoria,38.7333,-27.0667,290.29,67,20,8.7,PT,1734417826
268,choibalsan,48.0667,114.5,264.9,47,0,3.04,MN,1734417827
269,arraial do cabo,-22.9661,-42.0278,296.46,92,3,3.76,BR,1734417828
270,sao joao da barra,-21.6403,-41.0511,296.21,94,93,4.23,BR,1734417829
271,el galpon,-25.3807,-64.6526,294.07,61,50,1.64,AR,1734417830
272,isangel,-19.55,169.2667,300.33,77,100,3.11,VU,1734417831
273,jamestown,42.097,-79.2353,281.95,89,75,7.2,US,1734417833
274,pacific grove,36.6177,-121.9166,282.97,95,100,1.79,US,1734417834
275,kenai,60.5544,-151.2583,269.2,90,0,7.2,US,1734417835
276,malabar,-33.9667,151.25,297.62,68,75,7.72,AU,1734417837
277,komsomol'sk,49.0097,33.6455,275.97,95,100,6.4,UA,1734417838
278,cabo san lucas,22.8909,-109.9124,291.9,86,0,2.36,MX,1734417782
279,suez,29.9737,32.5263,288.85,71,56,3.37,EG,1734417840
280,lata,40.1629,-8.3327,279.88,65,72,2.08,PT,1734417841
281,yaren,-0.5472,166.916,301.04,74,100,3.43,NR,1734417843
282,fallon,39.4735,-118.7774,271.08,74,75,2.06,US,1734417844
283,mhangura,-16.8939,30.1683,297.15,65,85,3.56,ZW,1734417845
284,susuman,62.7833,148.1667,244.31,100,95,1.31,RU,1734417848
285,constantia,44.1833,28.65,277.43,75,8,8.07,RO,1734417849
286,bhaisa,19.1,77.9667,298.88,22,100,1.63,IN,1734417850
287,northam,51.0333,-4.2167,283.86,89,100,7.27,GB,1734417851
288,bereeda,11.8704,51.0579,298.88,57,12,8.5,SO,1734417853
289,lanxi,29.2195,119.477,285.93,37,19,1.38,CN,1734417854
290,whakatane,-37.9585,176.9854,291.21,68,87,4.02,NZ,1734417855
291,baynjiwayn,35.6183,45.9541,277.39,18,62,1.93,IQ,1734417856
292,antofagasta,-23.65,-70.4,290.53,85,100,1.37,CL,1734417857
293,mossel bay,-34.1831,22.146,292.11,51,95,4.66,ZA,1734417858
294,mitu,1.1983,-70.1733,293.51,99,100,0.29,CO,1734417861
295,bridgewater,44.3835,-64.5155,273.97,80,16,1.54,CA,1734417862
296,santana,-0.0583,-51.1817,298.25,100,40,1.54,BR,1734417864
297,palmer,42.1584,-72.3287,281.77,79,100,4.56,US,1734417866
298,tezu,27.9167,96.1667,298.48,16,6,1.19,IN,1734417867
299,sao felix do xingu,-6.6447,-51.995,295.8,98,100,0.71,BR,1734417870
300,acapulco de juarez,16.8634,-99.8901,299.05,89,20,1.54,MX,1734417873
301,rawson,-43.3002,-65.1023,292.31,72,0,4.63,AR,1734417874
302,bei'an,46.4398,126.2373,256.44,91,6,2.68,CN,1734417877
303,cockburn town,21.4612,-71.1419,299.34,78,0,9.04,TC,1734417878
304,mount darwin,-16.7725,31.5838,297.38,73,96,3.53,ZW,1734417879
305,timimoun,29.2639,0.231,278.36,65,0,7.2,DZ,1734417881
306,vilyuysk,63.7553,121.6247,260.62,95,100,3.3,RU,1734417882
307,oranjemund,-28.55,16.4333,290.42,59,0,7.35,NA,1734417883
308,kyaikkami,16.08,97.5675,301.89,56,9,1.95,MM,1734417884
309,sharypovo,55.5403,89.2008,261.99,73,89,1.3,RU,1734417885
310,uliastay,47.7417,96.8444,260.67,75,100,1.32,MN,1734417886
311,smithers,54.7804,-127.1743,267.33,86,100,2.06,CA,1734417888
312,pisco,-13.7,-76.2167,291.49,82,0,5.14,PE,1734417889
313,williams lake,52.1415,-122.1445,267.91,90,100,3.09,CA,1734417890
314,taroa,8.7058,171.2275,300.89,85,64,10.97,MH,1734417891
315,siwa oasis,29.2041,25.5195,288.4,82,0,3.5,EG,1734417892
316,mil'kovo,55.6078,37.7956,273.23,63,100,7.9,RU,1734417895
317,pombal,-6.7703,-37.8017,298.83,70,100,4.85,BR,1734417896
318,nyrob,60.733,56.7202,266.68,96,100,2.15,RU,1734417897
319,undurkhaan,47.3194,110.6556,264.18,77,0,1.41,MN,1734417898
320,udachny,66.4167,112.4,253.37,83,10,9.58,RU,1734417900
321,princeton,25.5384,-80.4089,295.37,94,100,3.6,US,1734417901
322,cranbrook,49.4999,-115.7688,266.06,100,100,1.03,CA,1734417658
323,port saint john's,-31.6229,29.5448,295.22,86,91,2.79,ZA,1734417903
324,ratlam,23.3167,75.0667,298.97,19,0,2.59,IN,1734417904
325,howrah,22.5892,88.3103,299.15,44,20,2.57,IN,1734417905
326,sanya,18.2431,109.505,299.24,53,0,3.0,CN,1734417907
327,asmara,15.3333,38.9333,288.46,55,8,1.73,ER,1734417908
328,hono,57.6897,11.6497,279.54,80,100,13.12,SE,1734417909
329,ndele,8.4109,20.6473,299.41,24,98,3.07,CF,1734417910
330,murzuq,25.9155,13.9184,283.42,82,0,2.98,LY,1734417911
331,grand-bassam,5.2118,-3.7388,300.13,88,4,1.19,CI,1734417912
332,fort bragg,35.139,-79.006,282.06,93,0,0.0,US,1734417914
333,kapshagay,43.8833,77.0833,271.27,54,0,8.31,KZ,1734417916
334,rethel,49.5,4.3333,278.07,94,100,2.25,FR,1734417918
335,dryden,49.7833,-92.7503,267.31,86,100,3.6,CA,1734417919
336,sittwe,20.15,92.9,301.17,59,100,4.62,MM,1734417920
337,vadso,70.0744,29.7487,264.24,79,75,3.09,NO,1734417921
338,horta,38.5333,-28.6333,291.49,81,100,10.28,PT,1734417922
339,essaouira,31.5125,-9.77,287.87,33,7,2.57,MA,1734417923
340,tanout,14.9709,8.8879,287.89,25,29,5.6,NE,1734417925
341,tutoia,-2.7619,-42.2744,299.94,82,55,5.37,BR,1734417926
342,manturovo,58.3353,44.7619,269.03,96,100,2.63,RU,1734417927
343,immenstadt im allgau,47.56,10.2139,272.35,86,92,0.45,DE,1734417928
344,moyynkum,44.2914,72.9469,270.74,65,5,6.61,KZ,1734417929
345,tuntum,-5.2581,-44.6489,296.82,82,43,1.28,BR,1734417931
346,zalesovo,53.9939,84.7431,257.33,92,15,2.46,RU,1734417932
347,pangai,-19.8,-174.35,300.21,69,40,2.57,TO,1734417933
348,capitao poco,-1.7464,-47.0594,296.59,93,100,2.16,BR,1734417934
349,qamdo,31.1667,97.2333,280.21,15,0,0.17,CN,1734417935
350,taulaga,-11.0553,-171.0883,301.31,77,98,6.95,AS,1734417936
351,fria,10.4167,-13.5833,292.78,95,51,1.34,GN,1734417938
352,kichmengskiy gorodok,59.9816,45.7854,265.28,96,100,2.3,RU,1734417939
353,bubaque,11.2833,-15.8333,298.98,67,24,4.04,GW,1734417940
354,menongue,-14.6585,17.691,295.02,77,100,2.41,AO,1734417941
355,villa angela,-27.5738,-60.7153,291.07,80,0,3.16,AR,1734417942
356,new plymouth,-39.0667,174.0833,285.55,100,0,6.4,NZ,1734417945
357,usogorsk,63.4106,48.6872,254.96,99,91,2.3,RU,1734417946
358,westport,41.1415,-73.3579,283.1,94,100,5.66,US,1734417947
359,mount isa,-20.7333,139.5,315.02,15,5,7.72,AU,1734417948
360,mount pearl,47.5166,-52.7813,273.33,84,0,4.63,CA,1734417949
361,hacienda la calera,-32.7833,-71.2167,285.58,84,8,0.62,CL,1734417951
362,daura,11.5538,11.4085,290.84,24,51,4.64,NG,1734417952
363,sechura,-5.5569,-80.8222,292.49,83,44,3.47,PE,1734417953
364,balancan,17.8,-91.5333,292.25,94,2,2.4,MX,1734417954
365,arar,30.9753,41.0381,278.16,24,0,0.0,SA,1734417955
366,porto novo,6.4965,2.6036,299.05,80,89,1.63,BJ,1734417957
367,sitka,57.0531,-135.33,274.09,60,40,2.06,US,1734417958
368,nishinoomote,30.7333,131.0,288.46,58,75,7.72,JP,1734417959
369,baise city,23.8997,106.6133,292.97,37,0,2.47,CN,1734417960
370,paracuru,-3.41,-39.0306,299.52,81,44,6.31,BR,1734417961
371,luba,3.4568,8.5547,300.28,79,100,0.82,GQ,1734417964
372,tyuratam,45.6507,63.3156,270.67,64,100,6.95,KZ,1734417965
373,xinyuan,37.3,99.0,268.69,31,100,3.05,CN,1734417966
374,gobabis,-22.45,18.9667,300.82,17,13,4.2,NA,1734417967
375,el alto,-4.2714,-81.2147,292.51,79,84,5.37,PE,1734417971
376,arawa,-6.2132,155.5367,300.45,89,100,0.5,PG,1734417972
377,kondagaon,19.6,81.6667,301.55,21,83,0.26,IN,1734417973
378,kirishi,59.4471,32.0205,265.38,85,100,2.62,RU,1734417975
379,whangarei,-35.7317,174.3239,290.45,71,58,3.74,NZ,1734417977
380,santa elena,-2.2333,-80.85,295.33,81,100,3.73,EC,1734417978
381,cherepanovo,54.2222,83.381,257.92,93,79,4.42,RU,1734417979
382,awjilah,29.1081,21.2869,286.33,52,0,2.97,LY,1734417980
383,zapolyarnyy,69.4154,30.8136,256.95,89,100,1.16,RU,1734417981
384,loiza,18.4313,-65.8802,295.97,92,40,2.57,PR,1734417982
385,lazaro cardenas,17.9583,-102.2,298.87,83,100,1.56,MX,1734417984
386,conselheiro pena,-19.1722,-41.4722,294.88,90,100,2.16,BR,1734417985
387,rayne,30.2349,-92.2685,289.81,94,100,3.65,US,1734417986
388,sisimiut,66.9395,-53.6735,264.74,88,100,11.22,GL,1734417988
389,berdyansk,46.7503,36.7944,278.8,86,100,8.62,UA,1734417989
390,quezon,7.7303,125.0989,296.66,85,100,2.24,PH,1734417990
391,kloulklubed,7.0419,134.2556,300.65,82,100,6.63,PW,1734417991
392,isoka,-10.1606,32.6335,299.8,51,100,2.78,ZM,1734417992
393,waterville,44.552,-69.6317,276.97,99,100,3.6,US,1734417749
394,buka,40.8108,69.1986,277.1,17,8,0.94,UZ,1734417995
395,salinopolis,-0.6136,-47.3561,300.1,81,72,5.3,BR,1734417996
396,nishon tumani,38.694,65.6751,274.29,69,0,2.06,UZ,1734417997
397,salekhard,66.53,66.6019,253.12,98,100,2.9,RU,1734417998
398,tra vinh,9.9347,106.3453,304.61,52,2,1.59,VN,1734417999
399,klaksvik,62.2266,-6.589,279.18,75,100,5.17,FO,1734418000
400,moussoro,13.6408,16.4901,291.87,21,97,5.75,TD,1734418002
401,preobrazheniye,42.9019,133.9064,264.85,42,46,2.73,RU,1734418003
402,paros,37.0833,25.15,285.25,66,20,6.17,GR,1734418004
403,cill airne,52.05,-9.5167,283.5,95,100,4.64,IE,1734418005
404,howard springs,-12.497,131.047,305.83,75,100,5.72,AU,1734418006
405,lodwar,3.1191,35.5973,304.88,34,22,8.45,KE,1734418007
406,valdivia,-39.8142,-73.2459,286.2,86,100,1.02,CL,1734418009
407,papao,-17.75,-149.55,299.63,74,69,3.6,PF,1734418010
408,hadibu,12.65,54.0333,298.07,63,51,9.16,YE,1734418011
409,la ronge,55.1001,-105.2842,257.27,72,100,4.63,CA,1734418012
410,tazacorte,28.629,-17.9293,295.45,24,0,7.2,ES,1734418014
411,plettenberg bay,-34.0527,23.3716,293.37,51,76,4.08,ZA,1734418015
412,mangrol,21.1167,70.1167,299.69,29,94,3.9,IN,1734418016
413,afaahiti,-17.75,-149.2833,299.09,80,70,4.55,PF,1734418017
414,savanna-la-mar,18.219,-78.1332,297.0,92,5,1.23,JM,1734418018
415,hassi messaoud,31.6804,6.0729,278.07,70,0,1.03,DZ,1734418019
416,okha,53.5739,142.9478,268.61,90,100,10.47,RU,1734418020
417,tandil,-37.3217,-59.1332,282.46,94,79,2.15,AR,1734417773
418,puerto madero,14.7208,-92.4215,297.28,83,19,2.2,MX,1734418023
419,sinabang,2.4803,96.3801,302.67,70,66,0.82,ID,1734418024
420,ma'ili,21.4219,-158.1803,295.84,81,40,1.54,US,1734418025
421,kandahar,31.0,65.75,279.15,25,0,2.98,AF,1734418026
422,mugia,43.1041,-9.2179,287.85,65,100,12.05,ES,1734418028
423,imbituba,-28.24,-48.6703,290.4,89,35,4.64,BR,1734418029
424,arteche,12.2645,125.4048,298.45,91,100,5.2,PH,1734418030
425,lib,8.3122,167.3766,300.79,86,90,10.88,MH,1734418031
426,novodvinsk,64.4165,40.8122,249.01,94,100,2.66,RU,1734418032
427,makushino,55.2103,67.2442,265.94,79,100,9.79,RU,1734418034
428,palamos,41.8484,3.1291,281.46,76,7,4.54,ES,1734418035
429,ilhabela,-23.7781,-45.3581,294.94,80,0,1.92,BR,1734418036
430,askale,39.9208,40.695,265.14,96,50,1.81,TR,1734418037
431,arenapolis,-14.4503,-56.8461,294.65,95,89,1.29,BR,1734418038
432,ta`u,-14.2336,-169.5144,301.36,74,43,4.47,AS,1734418040
433,rajpur,22.3,74.35,299.59,18,5,2.43,IN,1734418041
434,port-vila,-17.7338,168.3219,300.19,78,94,2.4,VU,1734418042
435,ust'-kut,56.7938,105.7672,266.0,93,100,2.59,RU,1734418043
436,mazamari,-11.3258,-74.5308,293.29,96,100,0.78,PE,1734418044
437,ulladulla,-35.35,150.4667,292.97,73,100,6.47,AU,1734418045
438,tolanaro,-25.0319,46.9987,305.19,45,0,4.12,MG,1734418047
439,aldinga beach,-35.2793,138.4604,295.19,48,0,7.72,AU,1734418048
440,sovetskaya gavan',48.9723,140.2878,259.63,68,100,5.96,RU,1734418049
441,krupki,54.3178,29.1358,276.12,91,98,7.29,BY,1734418050
442,bongor,10.2806,15.3722,294.76,17,97,4.18,TD,1734418051
443,ust-nera,64.5667,143.2,240.87,97,53,0.91,RU,1734418052
444,atasu,48.6814,71.6433,261.95,79,100,3.73,KZ,1734418054
445,grand falls-windsor,48.9332,-55.6649,269.54,86,15,3.41,CA,1734418056
446,kamyanyets,52.4001,23.81,280.89,85,100,12.24,BY,1734418057
447,bocaiuva,-17.1078,-43.815,293.89,96,100,1.36,BR,1734418058
448,sambava,-14.2667,50.1667,299.47,71,100,4.24,MG,1734418060
449,floro,61.5996,5.0328,278.13,75,75,3.6,NO,1734418061
450,skidel',53.5904,24.2478,279.23,93,75,6.0,BY,1734418062
451,aripuana,-9.1667,-60.6333,294.96,100,100,0.75,BR,1734418063
452,mana,5.6592,-53.7767,297.9,91,94,3.55,GF,1734418064
453,caazapa,-26.15,-56.4,289.52,81,0,0.99,PY,1734418066
454,torghay,49.6339,63.4981,268.29,74,100,8.88,KZ,1734418067
455,general villegas,-35.0328,-63.0125,288.69,39,3,3.81,AR,1734418068
456,ugoofaaru,5.6667,73.0,299.96,80,79,3.81,MV,1734418069
457,viqueque,-8.8673,126.3658,303.74,68,62,2.68,TL,1734418070
458,pestovo,58.5938,35.8024,265.51,86,100,4.68,RU,1734418071
459,cooper's town,26.8667,-77.5167,297.39,81,1,9.72,BS,1734418073
460,comodoro rivadavia,-45.8667,-67.5,288.07,88,0,1.03,AR,1734418074
461,bondo,3.8146,23.6866,301.57,36,100,0.69,CD,1734418076
462,reuleuet,5.2167,96.2833,301.57,80,56,2.5,ID,1734418077
463,francisco sa,-16.4758,-43.4883,293.56,93,100,2.71,BR,1734418080
464,ust'-ilimsk,58.0006,102.6619,261.14,95,96,1.98,RU,1734418081
465,calaca,13.9833,120.8167,297.46,85,100,4.51,PH,1734418082
466,chaah,2.249,103.048,303.38,67,98,2.78,MY,1734418083
467,mvomero,-6.25,38.6667,300.77,78,100,2.05,TZ,1734418084
468,itapirapua,-15.8233,-50.6133,295.06,93,82,1.3,BR,1734418085
469,angra do heroismo,38.65,-27.2167,290.49,67,20,8.74,PT,1734418087
470,villa regina,-39.1,-67.0667,297.58,20,39,0.45,AR,1734418088
471,ivins,37.1686,-113.6794,275.77,29,78,1.45,US,1734418089
472,dareda,-4.2167,35.55,292.9,76,100,3.58,TZ,1734418090
473,kaga bandoro,6.9896,19.1874,299.74,20,68,2.25,CF,1734418091
474,berdigestyakh,62.0989,126.6992,250.92,98,100,1.42,RU,1734418092
475,fort st. john,56.2499,-120.8529,252.09,77,100,4.63,CA,1734418094
476,acarau,-2.8856,-40.12,299.52,81,74,6.74,BR,1734418095
477,parauna,-16.9478,-50.4486,294.0,84,100,0.91,BR,1734418096
478,hilo,19.7297,-155.09,294.79,99,100,2.24,US,1734418097
479,sao jose da coroa grande,-8.8978,-35.1478,298.45,84,64,3.02,BR,1734418098
480,khalkhal,37.6189,48.5258,273.14,47,7,3.58,IR,1734418100
481,aljezur,37.3191,-8.8033,286.9,85,98,7.54,PT,1734418101
482,laiwu,36.1928,117.6569,278.33,33,1,5.08,CN,1734418102
483,santa marta,11.2408,-74.199,299.18,72,0,2.24,CO,1734418103
484,ketchikan,55.3422,-131.6461,270.56,72,98,2.24,US,1734418104
485,vityazevo,44.9931,37.2719,282.38,76,75,6.0,RU,1734418105
486,novo aripuana,-5.1206,-60.3797,295.93,99,100,1.45,BR,1734418108
487,port alfred,-33.5906,26.891,293.25,79,95,0.45,ZA,1734418109
488,bandar abbas,27.1865,56.2808,292.14,20,1,3.09,IR,1734418110
489,kirakira,-10.4544,161.9205,301.61,77,100,1.75,SB,1734418111
490,shchyolkino,45.4291,35.8223,281.89,79,100,8.15,UA,1734418112
491,oltinko'l,40.8011,72.1634,272.42,51,0,1.01,UZ,1734418114
492,touba,8.2833,-7.6833,290.93,25,32,1.08,CI,1734418115
493,richards bay,-28.783,32.0377,299.65,67,44,2.1,ZA,1734418116
494,regeneracao,-6.2378,-42.6883,296.86,62,100,1.06,BR,1734418117
495,sangin,32.0728,64.8359,279.23,25,8,0.98,AF,1734418118
496,san luis de la loma,17.2706,-100.8939,297.29,82,69,1.94,MX,1734418119
497,sangmelima,2.9333,11.9833,296.09,82,100,1.26,CM,1734418121
498,sao gabriel da cachoeira,-0.1303,-67.0892,296.21,98,93,1.13,BR,1734418122
499,sal rei,16.1833,-22.9167,297.61,78,100,7.33,CV,1734418123
500,pionerskiy,54.9508,20.2275,281.06,83,6,14.02,RU,1734418124
501,malvik,63.4333,10.6833,273.95,93,75,13.38,NO,1734418126
502,hailar,49.2,119.7,253.49,89,0,2.11,CN,1734418128
503,el sauzal de rodriguez,31.9,-116.6833,285.12,63,0,1.15,MX,1734418129
504,iquique,-20.2208,-70.1431,292.15,81,100,1.43,CL,1734418130
505,chaozhou,23.6651,116.6379,294.07,27,0,1.41,CN,1734418131
506,tindouf,27.6711,-8.1474,282.4,46,96,9.26,DZ,1734418132
507,nemuro,43.3236,145.575,270.15,45,15,1.75,JP,1734418133
508,suva,-18.1416,178.4415,300.86,74,40,2.57,FJ,1734417955
509,vimperk,49.0586,13.7829,276.64,99,100,3.95,CZ,1734418136
510,anahuac,27.2333,-100.15,294.77,75,100,1.51,MX,1734418137
511,kolonia town,6.964,158.206,301.15,83,100,2.57,FM,1734418138
512,cam ranh,11.9214,109.1591,301.13,61,20,8.23,VN,1734418139
513,vicente guerrero,19.1194,-98.1708,286.18,54,100,3.41,MX,1734418141
514,kasulu,-4.5767,30.1025,295.04,83,100,1.86,TZ,1734418142
515,dwarka,22.2394,68.9678,297.54,27,0,5.8,IN,1734418143
516,el negrito,15.3167,-87.7,293.93,98,20,1.08,HN,1734418144
517,laminusa,5.5549,120.9136,301.45,71,100,0.98,PH,1734418145
518,woolgoolga,-30.1106,153.2007,298.67,83,99,5.27,AU,1734418146
519,hammerfest,70.6634,23.6821,263.4,67,40,5.14,NO,1734418148
520,kuraymah,18.55,31.85,296.53,55,100,6.18,SD,1734418149
521,kargopol',61.5071,38.9456,259.6,93,100,3.52,RU,1734418150
522,norman,35.2226,-97.4395,281.33,55,2,2.34,US,1734418036
523,punta cana,18.5818,-68.4043,298.02,88,20,2.06,DO,1734418153
524,uturoa,-16.7333,-151.4333,300.49,78,97,2.94,PF,1734418155
525,laguna,38.421,-121.4238,280.13,93,20,1.54,US,1734418156
526,shindand,33.3029,62.1474,278.39,29,100,2.86,AF,1734418157
527,pitanga,-24.7572,-51.7614,284.94,79,0,1.35,BR,1734418158
528,trairi,-3.2778,-39.2689,299.21,80,57,5.82,BR,1734418160
529,ganghwa-gun,37.7472,126.4856,274.78,40,4,6.24,KR,1734418161
530,mirnyy,62.5353,113.9611,262.57,87,100,7.1,RU,1734418162
531,mrakovo,52.7161,56.6244,268.36,93,100,5.39,RU,1734418163
532,broken hill,-31.95,141.4333,303.62,14,0,9.88,AU,1734418164
533,song cau,13.45,109.2167,295.36,85,100,5.54,VN,1734418165
534,sumberpucung,-8.1586,112.4829,301.96,65,84,2.02,ID,1734418167
535,maryville,35.7565,-83.9705,284.74,97,100,1.54,US,1734418168
536,karratha,-20.7377,116.8463,306.14,56,100,6.45,AU,1734418169
537,port macquarie,-31.4333,152.9167,299.3,83,0,4.47,AU,1734418170
538,akrehamn,59.2667,5.1833,279.29,81,75,2.57,NO,1734418171
539,pindushi,62.9152,34.58,259.44,82,100,3.22,RU,1734418173
540,topolobampo,25.6,-109.05,289.14,82,0,4.27,MX,1734418174
541,tarko-sale,64.9225,77.785,258.46,95,100,9.28,RU,1734418175
542,ciudad lazaro cardenas,17.9583,-102.2,298.87,83,100,1.56,MX,1734418176
543,nguigmi,14.2495,13.1092,290.6,21,100,5.56,NE,1734418177
544,porbandar,21.6422,69.6093,300.14,17,0,1.54,IN,1734418178
545,borogontsy,62.6683,131.1683,232.2,100,40,1.18,RU,1734418179
546,mantyharju,61.4167,26.8833,261.9,98,100,0.99,FI,1734418181
547,daru,-9.0763,143.2092,301.57,77,99,3.76,PG,1734418182
548,haiku-pauwela,20.9219,-156.3051,293.8,82,14,2.68,US,1734418183
549,khandyga,62.6667,135.6,236.43,98,65,1.19,RU,1734418184
550,mo i rana,66.3128,14.1428,270.07,93,20,0.51,NO,1734418185
551,mozhaysk,55.5019,36.0272,271.43,84,95,6.76,RU,1734418187
552,bayganin,48.6947,55.8742,271.33,84,100,7.13,KZ,1734418188
553,vale de cambra,40.8497,-8.3939,281.93,65,96,1.69,PT,1734418189
554,revda,56.801,59.9303,268.31,85,100,3.64,RU,1734418190
555,sona,45.4388,10.8255,271.66,100,100,1.03,IT,1734418191
556,tortoli,39.9256,9.6572,284.05,46,0,6.17,IT,1734418193
557,abepura,-2.6333,140.5833,301.6,74,40,5.66,ID,1734418194
558,tonghae,37.5439,129.1069,275.83,30,0,5.69,KR,1734418195
559,thinadhoo,0.5333,72.9333,301.14,79,13,7.72,MV,1734418196
560,mto wa mbu,-3.35,35.85,299.47,53,65,3.36,TZ,1734418197
561,pochep,52.9336,33.4464,273.96,89,9,7.22,RU,1734418199
562,bull savanna,17.8868,-77.5902,296.14,85,1,3.95,JM,1734418200
563,ripley,53.0333,-1.4,277.69,92,100,2.65,GB,1734418201
564,springs,-26.25,28.4,296.2,38,100,6.84,ZA,1734418204
565,chui,-33.6971,-53.4616,288.16,90,0,1.92,UY,1734418206
566,gifford,27.6753,-80.4092,295.4,88,75,4.12,US,1734418207
567,torbat-e jam,35.244,60.6225,272.42,58,100,2.76,IR,1734418208
568,las khorey,11.1595,48.1967,299.03,56,5,5.79,SO,1734418210
